Back

$GPGSV,3,1,11,09,76,148,32,05,55,242,29,17,33,054,30,14,27,314,24*71
$GPGSV,3,2,11,30,16,246,32,22,14,279,24,24,13,077,,26,09,172,23*7E
$GPGSV,3,3,11,04,07,102,30,29,02,170,09,18,02,243,*42
$GPRMC,165110.000,A,5601.0318,N,01211.3503,E,0.09,28.11,190706,,*35
$GPVTG,28.11,T,,M,0.09,N,0.2,K*51
$GPGGA,165111.000,5601.0318,N,01211.3503,E,1,07,1.2,22.3,M,41.6,M,,0000*65
$GPGSA,A,3,05,17,22,09,14,04,30,,,,,,1.8,1.2,1.3*32
$GPRMC,165111.000,A,5601.0318,N,01211.3503,E,0.08,43.53,190706,,*3E
$GPVTG,43.53,T,,M,0.08,N,0.1,K*58
$GPGGA,165112.000,5601.0318,N,01211.3503,E,1,07,1.2,22.3,M,41.6,M,,0000*66
$GPGSA,A,3,05,17,22,09,14,04,30,,,,,,1.8,1.2,1.3*32
$GPRMC,165112.000,A,5601.0318,N,01211.3503,E,0.08,37.38,190706,,*33
$GPVTG,37.38,T,,M,0.08,N,0.1,K*56
$GPGGA,165113.000,5601.0318,N,01211.3503,E,1,07,1.2,22.4,M,41.6,M,,0000*60
$GPGSA,A,3,05,17,22,09,14,04,30,,,,,,1.8,1.2,1.3*32
$GPRMC,165113.000,A,5601.0318,N,01211.3503,E,0.11,21.03,190706,,*35
$GPVTG,21.03,T,,M,0.11,N,0.2,K*52
$GPGGA,165114.000,5601.0318,N,01211.3504,E,1,07,1.2,22.6,M,41.6,M,,0000*62
$GPGSA,A,3,05,17,22,09,14,04,30,,,,,,1.8,1.2,1.3*32
$GPRMC,165114.000,A,5601.0318,N,01211.3504,E,0.08,45.67,190706,,*3D
$GPVTG,45.67,T,,M,0.08,N,0.1,K*59
$GPGGA,165115.000,5601.0318,N,01211.3504,E,1,07,1.2,22.7,M,41.6,M,,0000*62
$GPGSA,A,3,05,17,22,09,14,04,30,,,,,,1.8,1.2,1.3*32
$GPGSV,3,1,11,09,76,148,32,05,55,242,30,17,33,054,29,14,27,314,25*70
$GPGSV,3,2,11,30,16,246,33,22,14,279,24,24,13,077,,26,09,172,22*7E
$GPGSV,3,3,11,04,07,102,30,29,02,170,07,18,02,243,*4C
$GPRMC,165115.000,A,5601.0318,N,01211.3504,E,0.10,59.41,190706,,*3C
$GPVTG,59.41,T,,M,0.10,N,0.2,K*5A
$GPGGA,165116.000,5601.0318,N,01211.3504,E,1,07,1.2,22.8,M,41.6,M,,0000*6E
$GPGSA,A,3,05,17,22,09,14,04,30,,,,,,1.8,1.2,1.3*32
$GPRMC,165116.000,A,5601.0318,N,01211.3504,E,0.06,50.22,190706,,*34
$GPVTG,50.22,T,,M,0.06,N,0.1,K*52
$GPGGA,165117.000,5601.0318,N,01211.3505,E,1,07,1.2,22.9,M,41.6,M,,0000*6F
$GPGSA,A,3,05,17,22,09,14,04,30,,,,,,1.8,1.2,1.3*32
$GPRMC,165117.000,A,5601.0318,N,01211.3505,E,0.08,45.32,190706,,*3F
$GPVTG,45.32,T,,M,0.08,N,0.2,K*5A
$GPGGA,165118.000,5601.0318,N,01211.3505,E,1,07,1.2,23.0,M,41.6,M,,0000*68
$GPGSA,A,3,05,17,22,09,14,04,30,,,,,,1.8,1.2,1.3*32
$GPRMC,165118.000,A,5601.0318,N,01211.3505,E,0.10,37.49,190706,,*30
$GPVTG,37.49,T,,M,0.10,N,0.2,K*5A
$GPGGA,165119.000,5601.0318,N,01211.3504,E,1,06,1.2,23.0,M,41.6,M,,0000*69
$GPGSA,A,3,05,17,09,14,04,30,,,,,,,1.9,1.2,1.4*34
$GPRMC,165119.000,A,5601.0318,N,01211.3504,E,0.08,27.23,190706,,*34
$GPVTG,27.23,T,,M,0.08,N,0.1,K*5D
$GPGGA,165120.000,5601.0318,N,01211.3504,E,1,07,1.2,23.0,M,41.6,M,,0000*62
$GPGSA,A,3,05,17,22,09,14,04,30,,,,,,1.8,1.2,1.3*32
$GPGSV,3,1,11,09,76,147,32,05,55,242,31,17,33,053,29,14,27,314,30*7D
$GPGSV,3,2,11,30,17,246,33,22,14,278,24,24,13,077,,26,08,172,*7F
$GPGSV,3,3,11,04,08,102,30,29,02,170,,18,02,243,*44
$GPRMC,165120.000,A,5601.0318,N,01211.3504,E,0.08,41.52,190706,,*38
$GPVTG,41.52,T,,M,0.08,N,0.1,K*5B
$GPGGA,165121.000,5601.0319,N,01211.3505,E,1,07,1.2,23.1,M,41.6,M,,0000*62
$GPGSA,A,3,05,17,22,09,14,04,30,,,,,,1.8,1.2,1.3*32
$GPRMC,165121.000,A,5601.0319,N,01211.3505,E,0.09,57.19,190706,,*30
$GPVTG,57.19,T,,M,0.09,N,0.2,K*51
$GPGGA,165122.000,5601.0319,N,01211.3505,E,1,07,1.2,23.2,M,41.6,M,,0000*62
$GPGSA,A,3,05,17,22,09,14,04,30,,,,,,1.8,1.2,1.3*32
$GPRMC,165122.000,A,5601.0319,N,01211.3505,E,0.10,30.60,190706,,*34
$GPVTG,30.60,T,,M,0.10,N,0.2,K*56
$GPGGA,165123.000,5601.0319,N,01211.3505,E,1,07,1.2,23.3,M,41.6,M,,0000*62
$GPGSA,A,3,05,17,22,09,14,04,30,,,,,,1.8,1.2,1.3*32
$GPRMC,165123.000,A,5601.0319,N,01211.3505,E,0.07,45.49,190706,,*3A
$GPVTG,45.49,T,,M,0.07,N,0.1,K*5A
$GPGGA,165124.000,5601.0319,N,01211.3505,E,1,07,1.2,23.4,M,41.6,M,,0000*62
$GPGSA,A,3,05,17,22,09,14,04,30,,,,,,1.8,1.2,1.3*32
$GPRMC,165124.000,A,5601.0319,N,01211.3505,E,0.09,34.85,190706,,*35
$GPVTG,34.85,T,,M,0.09,N,0.2,K*51
$GPGGA,165125.000,5601.0319,N,01211.3506,E,1,07,1.2,23.4,M,41.6,M,,0000*60
$GPGSA,A,3,05,17,22,09,14,04,30,,,,,,1.8,1.2,1.3*32
$GPGSV,3,1,11,09,76,147,32,05,55,242,32,17,33,053,29,14,27,314,30*7E
$GPGSV,3,2,11,30,17,246,33,22,14,278,24,24,13,077,,26,08,172,22*7F
$GPGSV,3,3,11,04,08,102,30,29,02,170,09,18,02,243,*4D
$GPRMC,165125.000,A,5601.0319,N,01211.3506,E,0.06,43.06,190706,,*33
$GPVTG,43.06,T,,M,0.06,N,0.1,K*56
$GPGGA,165126.000,5601.0319,N,01211.3506,E,1,07,1.2,23.4,M,41.6,M,,0000*63
$GPGSA,A,3,05,17,22,09,14,04,30,,,,,,1.8,1.2,1.3*32
$GPRMC,165126.000,A,5601.0319,N,01211.3506,E,0.10,37.63,190706,,*37
$GPVTG,37.63,T,,M,0.10,N,0.2,K*52
$GPGGA,165127.000,5601.0319,N,01211.3505,E,1,07,1.2,23.4,M,41.6,M,,0000*61
$GPGSA,A,3,05,17,22,09,14,04,30,,,,,,1.8,1.2,1.3*32
$GPRMC,165127.000,A,5601.0319,N,01211.3505,E,0.07,42.23,190706,,*35
$GPVTG,42.23,T,,M,0.07,N,0.1,K*51
$GPGGA,165128.000,5601.0319,N,01211.3505,E,1,07,1.2,23.4,M,41.6,M,,0000*6E
$GPGSA,A,3,05,17,22,09,14,04,30,,,,,,1.8,1.2,1.3*32
$GPRMC,165128.000,A,5601.0319,N,01211.3505,E,0.09,27.98,190706,,*37
$GPVTG,27.98,T,,M,0.09,N,0.2,K*5F
$GPGGA,165129.000,5601.0319,N,01211.3505,E,1,07,1.2,23.3,M,41.6,M,,0000*68
$GPGSA,A,3,05,17,22,09,14,04,30,,,,,,1.8,1.2,1.3*32
$GPRMC,165129.000,A,5601.0319,N,01211.3505,E,0.08,51.89,190706,,*36
$GPVTG,51.89,T,,M,0.08,N,0.1,K*5C
$GPGGA,165130.000,5601.0319,N,01211.3505,E,1,07,1.2,23.2,M,41.6,M,,0000*61
